{"type":"FeatureCollection","features":[{"type":"Feature","properties":{"Name":"Slater Mill","Info link":"http://www.slatermill.org/","Wiki":"https://en.wikipedia.org/wiki/Slater_Mill_Historic_Site"},"geometry":{"type":"Point","coordinates":[-71.382414,41.877551]}},{"type":"Feature","properties":{"Name":"Burning of the Gaspee","Info link":"http://gaspee.org/BurningGaspee.html","Wiki":"https://en.wikipedia.org/wiki/Gaspee_Affair"},"geometry":{"type":"Point","coordinates":[-71.378333,41.744444]}},{"type":"Feature","properties":{"Name":"Dorr Rebellion","Info link":"http://library.providence.edu/dps/projects/dorr/index.html","Wiki":"https://en.wikipedia.org/wiki/Dorr_Rebellion"},"geometry":{"type":"Point","coordinates":[-71.672696,41.920216]}},{"type":"Feature","properties":{"Name":"Situate Reservoir","Info link":"","Wiki":"https://en.wikipedia.org/wiki/Scituate_Reservoir"},"geometry":{"type":"Point","coordinates":[-71.583333,41.75]}},{"type":"Feature","properties":{"Name":"King Phillips Chair","Info link":"","Wiki":"https://en.wikipedia.org/wiki/Mount_Hope_(Rhode_Island)"},"geometry":{"type":"Point","coordinates":[-71.24,41.673889]}},{"type":"Feature","properties":{"Name":"Old Stone Mill","Info link":"","Wiki":"https://en.wikipedia.org/wiki/Newport_Tower_(Rhode_Island)"},"geometry":{"type":"Point","coordinates":[-71.3099,41.4858]}},{"type":"Feature","properties":{"Name":"Great Swamp Fight","Info link":"","Wiki":"https://en.wikipedia.org/wiki/Great_Swamp_Fight"},"geometry":{"type":"Point","coordinates":[-71.595487,41.468501]}},{"type":"Feature","properties":{"Name":"Granite Quarries","Info link":"","Wiki":"https://westerlylife.com/the-early-days-of-quarrying-in-westerly/"},"geometry":{"type":"Point","coordinates":[-71.735576,41.38396]}},{"type":"Feature","properties":{"Name":"Gilbert Stuart's Birthplace","Info link":"http://www.gilbertstuartmuseum.org/","Wiki":"https://en.wikipedia.org/wiki/Gilbert_Stuart_Birthplace"},"geometry":{"type":"Point","coordinates":[-71.444678,41.520155]}},{"type":"Feature","properties":{"Name":"Fort Ninigret","Info link":"","Wiki":"https://en.wikipedia.org/wiki/Fort_Ninigret"},"geometry":{"type":"Point","coordinates":[-71.648333,41.381111]}}]}